{"type":"FeatureCollection", "features": [
{"type":"Feature","geometry":{"type":"Point","coordinates":[113.58868803329678,34.685745015834634]},"properties":{"id":20,"name":"二七区"}},
{"type":"Feature","geometry":{"type":"Point","coordinates":[113.6562676679157,34.80134734294516]},"properties":{"id":30,"name":"金水区"}},
{"type":"Feature","geometry":{"type":"Point","coordinates":[113.60884623058946,34.868111734970256]},"properties":{"id":40,"name":"惠济区"}},
{"type":"Feature","geometry":{"type":"Point","coordinates":[113.28041941769898,34.7981312839967]},"properties":{"id":50,"name":"上街区"}},
{"type":"Feature","geometry":{"type":"Point","coordinates":[113.37298697651951,34.78824405105239]},"properties":{"id":60,"name":"荥阳市"}},
{"type":"Feature","geometry":{"type":"Point","coordinates":[113.98135410011264,34.71960776018547]},"properties":{"id":70,"name":"中牟县"}},
{"type":"Feature","geometry":{"type":"Point","coordinates":[113.73301552043053,34.39576926054974]},"properties":{"id":80,"name":"新郑市"}},
{"type":"Feature","geometry":{"type":"Point","coordinates":[113.60884623058949,34.75205400677709]},"properties":{"id":90,"name":"中原区"}},
{"type":"Feature","geometry":{"type":"Point","coordinates":[113.56083982487523,34.81300283807748]},"properties":{"id":100,"name":"高新区"}},
{"type":"Feature","geometry":{"type":"Point","coordinates":[113.72693184919486,34.77579884859614]},"properties":{"id":110,"name":"郑东新区"}},
{"type":"Feature","geometry":{"type":"Point","coordinates":[113.67210081228637,34.75442800348528]},"properties":{"id":120,"name":"管城区"}}
]}